,City,Lat,Lng,Max Temp,Humidity,Cloudiness,Wind Speed,Country,Date
0,Devonport,-41.1667,146.35,285.93,91,85,1.34,AU,1618431501
1,Katsuura,35.1333,140.3,282.04,61,75,9.26,JP,1618431516
2,Cape Town,-33.9258,18.4232,292.04,88,0,3.6,ZA,1618431157
3,Busselton,-33.65,115.3333,284.82,88,97,0.45,AU,1618431548
4,Arraial do Cabo,-22.9661,-42.0278,299.15,65,20,4.63,BR,1618431125
5,Punta Arenas,-53.15,-70.9167,280.15,70,40,14.4,CL,1618431346
6,Camargo,27.6667,-105.1667,304.24,6,0,2.99,MX,1618431595
7,Mataura,-46.1927,168.8643,283.15,97,98,1.59,NZ,1618431124
8,Nikolskoye,59.7035,30.7861,277.04,87,0,4.0,RU,1618431626
9,Padang,-0.9492,100.3543,298.51,88,97,1.63,ID,1618431642
10,Shahrud,36.4182,54.9763,289.85,33,89,1.91,IR,1618431657
11,Klaksvík,62.2266,-6.589,280.15,100,75,3.6,FO,1618431673
12,San Antonio,29.4241,-98.4936,303.15,58,75,2.57,US,1618431620
13,Westport,41.1415,-73.3579,289.26,76,1,5.66,US,1618431397
14,Jamestown,42.097,-79.2353,288.15,44,1,3.09,US,1618430953
15,East London,-33.0153,27.9116,294.96,80,58,2.49,ZA,1618431735
16,Leningradskiy,69.3833,178.4167,259.71,90,100,1.33,RU,1618431711
17,Gal'bshtadt,53.2264,78.9845,278.42,94,100,2.27,RU,1618431766
18,Kuito,-12.3833,16.9333,289.46,81,98,1.66,AO,1618431782
19,Pacific Grove,36.6177,-121.9166,290.15,48,1,5.66,US,1618431797
20,Palembang,-2.9167,104.7458,296.33,95,62,0.81,ID,1618431813
21,Am Timan,11.0297,20.2827,305.27,8,46,2.87,TD,1618431828
22,Aden,12.7794,45.0367,300.29,73,4,5.7,YE,1618431580
23,Esperance,-33.8667,121.9,286.15,100,90,4.12,AU,1618431860
24,Saint-Philippe,-21.3585,55.7679,297.15,78,0,2.57,RE,1618431721
25,Paamiut,61.994,-49.6678,272.39,91,100,10.19,GL,1618431731
26,Bluff,-46.6,168.3333,283.71,97,100,0.45,NZ,1618431710
27,Elmadağ,39.9208,33.2308,287.15,54,40,4.12,TR,1618431923
28,Puerto Ayora,-0.7393,-90.3518,300.15,83,20,6.17,EC,1618431938
29,Kavieng,-2.5744,150.7967,300.21,76,31,2.22,PG,1618431954
30,Kaeo,-35.1,173.7833,287.04,94,1,1.59,NZ,1618431970
31,Balkanabat,39.5108,54.3671,295.47,22,98,3.23,TM,1618431985
32,Borovoy,55.4333,86.0833,275.15,75,0,3.0,RU,1618432001
33,Longyearbyen,78.2186,15.6401,258.15,66,20,6.69,SJ,1618432016
34,Hermanus,-34.4187,19.2345,291.48,86,0,0.89,ZA,1618432032
35,Ushuaia,-54.8,-68.3,281.15,46,20,8.23,AR,1618431940
36,Bredasdorp,-34.5322,20.0403,287.15,94,0,0.51,ZA,1618431583
37,Dickinson,29.4608,-95.0513,300.93,89,90,4.12,US,1618432080
38,Jalu,29.0331,21.5482,294.93,38,4,6.92,LY,1618432095
39,Turbat,26.0023,63.044,300.43,40,98,1.24,PK,1618432111
40,Broome,42.2506,-75.833,291.48,55,90,1.54,US,1618432126
41,Cockburn Town,21.4612,-71.1419,299.15,65,20,6.17,TC,1618432142
42,Auki,-8.7676,160.7034,298.06,85,29,0.87,SB,1618432157
43,Yellowknife,62.456,-114.3525,278.15,42,1,4.63,CA,1618432173
44,Grand Gaube,-20.0064,57.6608,299.26,77,57,1.79,MU,1618432189
45,Hasaki,35.7333,140.8333,279.26,70,40,5.66,JP,1618432205
46,Laguna,38.421,-121.4238,294.82,30,1,3.09,US,1618432220
47,Dikson,73.5069,80.5464,244.56,100,100,2.17,RU,1618432236
48,Cabo San Lucas,22.8909,-109.9124,303.15,28,1,3.09,MX,1618432096
49,Nioro,13.35,-15.75,301.13,37,1,5.75,GM,1618432268
50,Mar del Plata,-38.0023,-57.5575,296.15,49,20,4.63,AR,1618432200
51,Lompoc,34.6391,-120.4579,288.71,55,74,4.63,US,1618432208
52,Kapaa,22.0752,-159.319,299.15,57,40,6.17,US,1618432314
53,Port Lincoln,-34.7333,135.8667,289.53,62,99,4.47,AU,1618432330
54,Port Alfred,-33.5906,26.891,293.81,79,84,2.12,ZA,1618432346
55,Rikitea,-23.1203,-134.9692,298.65,69,8,2.64,PF,1618432361
56,Albany,42.6001,-73.9662,294.82,29,85,0.99,US,1618432160
57,Voroshnëvo,51.6528,36.0172,289.15,33,91,5.0,RU,1618432392
58,Maihar,24.2667,80.75,301.6,14,100,4.45,IN,1618432408
59,Kiryat Gat,31.61,34.7642,290.37,56,96,2.57,IL,1618432423
60,Nizhniy Kuranakh,58.8353,125.4869,267.29,95,100,1.6,RU,1618432439
61,Sterling,39.0062,-77.4286,288.15,94,90,2.06,US,1618432315
62,Geraldton,-28.7667,114.6,285.15,82,0,3.6,AU,1618432486
63,Butaritari,3.0707,172.7902,300.64,79,81,4.2,KI,1618432501
64,Upernavik,72.7868,-56.1549,252.6,93,96,3.36,GL,1618432517
65,Talnakh,69.4865,88.3972,257.49,88,100,2.78,RU,1618432390
66,Portland,45.5234,-122.6762,292.59,20,1,2.57,US,1618432247
67,Sur,22.5667,59.5289,301.85,43,11,6.43,OM,1618432563
68,George Town,5.4112,100.3354,299.15,94,40,1.03,MY,1618432610
69,Doha,25.2867,51.5333,300.15,57,0,4.12,QA,1618432626
70,Tasiilaq,65.6145,-37.6368,273.15,93,90,0.51,GL,1618432641
71,Pāsighāt,28.0667,95.3333,295.28,51,41,1.89,IN,1618432642
72,Faanui,-16.4833,-151.75,300.82,72,100,5.56,PF,1618432703
73,Pitimbu,-7.4706,-34.8086,300.15,89,20,5.14,BR,1618432734
74,Salé,34.0389,-6.8166,291.48,94,75,3.55,MA,1618432765
75,Hobart,-42.8794,147.3294,285.37,62,40,5.66,AU,1618432780
76,Thompson,55.7435,-97.8558,274.15,29,20,2.57,CA,1618432796
77,Tuktoyaktuk,69.4541,-133.0374,266.15,93,75,3.09,CA,1618432812
78,Riyadh,24.6877,46.7219,302.15,26,20,7.2,SA,1618432804
79,Kavaratti,10.5669,72.642,301.84,69,7,1.7,IN,1618432843
80,Vila Franca do Campo,37.7167,-25.4333,289.15,88,20,5.14,PT,1618432875
81,Vysokogornyy,50.1167,139.15,262.46,96,100,1.37,RU,1618432890
82,Avarua,-21.2078,-159.775,301.15,69,20,1.54,CK,1618432906
83,Vol'sk,52.0333,47.3833,283.59,75,0,2.74,RU,1618432923
84,Atuona,-9.8,-139.0333,300.27,78,68,8.94,PF,1618432938
85,Bethel,41.3712,-73.414,295.15,30,75,4.63,US,1618432954
86,Keelung,25.1283,121.7419,293.15,94,75,6.17,TW,1618432971
87,Mahébourg,-20.4081,57.7,299.15,78,40,3.09,MU,1618432986
88,Granada,37.1882,-3.6067,285.37,100,75,1.54,ES,1618433002
89,Barrow,71.2906,-156.7887,262.15,79,90,5.14,US,1618433017
90,Altay,47.8667,88.1167,276.87,36,84,1.6,CN,1618433033
91,Fukuechō,32.6881,128.8419,286.54,52,70,6.69,JP,1618433049
92,Castro,-24.7911,-50.0119,289.54,70,98,2.07,BR,1618433064
93,Okhotsk,59.3833,143.3,266.23,82,100,3.98,RU,1618433097
94,Mizdah,31.4451,12.9801,289.21,33,100,5.3,LY,1618433128
95,Pimenta Bueno,-11.6725,-61.1936,300.93,82,90,0.85,BR,1618433158
96,Cherskiy,68.75,161.3,257.86,75,56,1.26,RU,1618433036
97,Beringovskiy,63.05,179.3167,260.89,82,16,1.5,RU,1618433189
98,Andenes,69.3143,16.1194,275.37,87,90,12.86,NO,1618433205
99,Vaini,-21.2,-175.2,298.15,78,20,1.03,TO,1618433220
100,Moate,53.55,-7.7167,281.48,73,78,0.45,IE,1618433236
101,Selma,36.5708,-119.6121,293.15,36,20,1.54,US,1618433048
102,Coquimbo,-29.9533,-71.3436,289.15,82,40,4.12,CL,1618433147
103,Canning,22.3189,88.6714,301.15,89,40,3.09,IN,1618433283
104,Sorong,-0.8833,131.25,298.95,84,100,3.98,ID,1618433102
105,Saldanha,-33.0117,17.9442,295.15,43,60,2.57,ZA,1618433317
106,Nome,64.5011,-165.4064,273.15,93,90,1.54,US,1618433333
107,Dukat,62.55,155.55,258.42,91,100,1.83,RU,1618433348
108,New Norfolk,-42.7826,147.0587,284.82,84,100,0.89,AU,1618433364
109,Robertson,36.5167,-86.8667,287.59,58,75,3.09,US,1618433379
110,Alto Araguaia,-17.3147,-53.2153,298.21,50,1,1.59,BR,1618433426
111,Suntar,62.1444,117.6319,263.25,97,88,1.02,RU,1618433457
112,Ilulissat,69.2167,-51.1,265.15,67,75,8.23,GL,1618433487
113,Raja,8.4596,25.678,300.17,9,9,1.96,SS,1618433503
114,Fortuna,40.5982,-124.1573,290.15,39,1,6.69,US,1618433534
115,Pangnirtung,66.1451,-65.7125,261.15,79,75,5.14,CA,1618433549
116,Qaanaaq,77.484,-69.3632,250.4,80,0,0.88,GL,1618433565
117,Turukhansk,65.8167,87.9833,261.26,97,98,2.8,RU,1618433580
118,Carutapera,-1.195,-46.02,299.04,90,98,2.85,BR,1618433596
119,Tubinskiy,52.8892,58.2225,278.15,56,8,0.85,RU,1618433612
120,Acaraú,-2.8856,-40.12,300.14,80,23,6.1,BR,1618433627
121,Erzin,36.9559,36.2,288.15,81,96,1.18,TR,1618433644
122,Carballo,43.213,-8.691,285.37,74,26,2.43,ES,1618433659
123,Iquique,-20.2208,-70.1431,294.15,60,0,5.66,CL,1618433675
124,Hilo,19.7297,-155.09,299.15,57,1,4.12,US,1618433690
125,Palauig,15.435,119.9045,299.79,73,37,1.0,PH,1618433706
126,San José de Río Tinto,14.9333,-85.7,306.15,46,40,1.54,HN,1618433721
127,Vardø,70.3705,31.1107,272.15,93,90,5.14,NO,1618433736
128,Hastings,50.8552,0.5729,277.04,71,9,0.45,GB,1618433752
129,Mitchell,43.7094,-98.0298,281.15,46,75,4.63,US,1618433679
130,Taoudenni,22.6783,-3.9836,306.45,10,14,4.81,ML,1618433783
131,Provideniya,64.3833,-173.3,267.15,63,0,2.0,RU,1618433798
132,Husavik,66.0449,-17.3389,281.15,66,75,5.66,IS,1618433829
133,Muroto-misakicho,33.2833,134.15,284.13,54,53,7.29,JP,1618433845
134,Vila,42.0304,-8.1588,290.37,77,0,1.54,PT,1618433860
135,Ust'-Kut,56.7938,105.7672,268.27,98,100,1.03,RU,1618433876
136,Peniche,39.3558,-9.3811,289.26,91,100,1.34,PT,1618433600
137,Itiúba,-10.6917,-39.8536,301.41,40,32,3.13,BR,1618433907
138,Vanimo,-2.6741,141.3028,297.73,90,100,2.87,PG,1618433922
139,Alice Springs,-23.7,133.8833,286.15,82,1,2.06,AU,1618433938
140,Ponta Delgada,37.7333,-25.6667,289.15,94,20,2.57,PT,1618433954
141,Yantongshan,43.2919,126.0094,275.26,32,63,3.05,CN,1618433969
142,Hervey Bay,-25.2986,152.8535,289.82,91,0,1.34,AU,1618433958
143,Muisne,0.6,-80.0333,303.15,74,75,4.63,EC,1618434000
144,Mgandu,-5.95,34.1333,288.73,95,97,1.72,TZ,1618434031
145,Saskylakh,71.9167,114.0833,251.43,100,87,1.99,RU,1618434062
146,Sørland,67.667,12.6934,277.62,82,100,14.98,NO,1618434078
147,Stony Plain,53.5334,-114.0021,286.15,20,1,2.57,CA,1618434093
148,Birjand,32.8663,59.2211,282.15,76,20,4.12,IR,1618434125
149,Touros,-5.1989,-35.4608,301.15,78,20,4.12,BR,1618434141
150,San Patricio,28.017,-97.5169,306.15,58,40,4.12,US,1618434156
151,Taltal,-25.4,-70.4833,292.76,71,22,2.63,CL,1618434065
152,Saint George,37.1041,-113.5841,295.37,17,1,5.14,US,1618434032
153,Hamilton,39.1834,-84.5333,290.93,39,1,4.12,US,1618434203
154,Chokurdakh,70.6333,147.9167,250.78,97,88,2.21,RU,1618434218
155,Iqaluit,63.7506,-68.5145,258.15,66,1,14.92,CA,1618434233
156,Nekā,36.6508,53.299,287.44,88,100,3.73,IR,1618434250
157,Alofi,-19.0595,-169.9187,299.15,73,40,1.54,NU,1618434266
158,Marco,25.9726,-81.729,302.15,58,1,4.63,US,1618434058
159,Ponta do Sol,32.6667,-17.1,292.15,68,40,4.12,PT,1618434296
160,Sistranda,63.7256,8.834,276.15,81,20,5.14,NO,1618434312
161,Tuatapere,-46.1333,167.6833,283.71,97,65,0.45,NZ,1618434329
162,Henties Bay,-22.116,14.2845,302.04,29,0,1.34,NA,1618434344
163,Plover,44.4564,-89.544,280.37,65,90,4.63,US,1618434360
164,Cidreira,-30.1811,-50.2056,295.08,63,13,6.96,BR,1618434375
165,Chui,-33.6971,-53.4616,291.7,76,0,4.35,UY,1618434345
166,Spaichingen,48.0833,8.7167,273.15,79,100,1.74,DE,1618434407
167,Villanueva de Córdoba,38.3228,-4.6287,288.15,88,100,1.54,ES,1618434422
168,Norman Wells,65.282,-126.8329,276.15,52,40,6.17,CA,1618434188
169,Montería,8.748,-75.8814,303.93,66,100,4.08,CO,1618434453
170,Grindavik,63.8424,-22.4338,280.15,93,75,7.2,IS,1618434416
171,Kapuskasing,49.4169,-82.4331,278.15,93,89,5.14,CA,1618434362
172,Ilhabela,-23.7781,-45.3581,295.56,68,89,2.74,BR,1618434500
173,Tcholliré,8.4022,14.1698,303.19,35,83,2.0,CM,1618434515
174,Bonavista,48.6499,-53.1147,275.15,75,100,2.06,CA,1618434531
175,Prince Rupert,54.3161,-130.3201,283.15,57,1,2.06,CA,1618434547
176,Lufkin,31.3382,-94.7291,294.26,83,90,3.6,US,1618434562
177,Lebu,-37.6167,-73.65,288.94,83,57,3.37,CL,1618434578
178,Hithadhoo,-0.6,73.0833,301.0,67,57,2.08,MV,1618434593
179,Tigil',57.8,158.6667,271.72,97,100,3.54,RU,1618434609
180,Khatanga,71.9667,102.5,246.79,98,56,4.07,RU,1618434625
181,Rehoboth,-23.3167,17.0833,290.77,26,0,2.73,NA,1618434396
182,Northam,51.0333,-4.2167,280.37,88,45,2.09,GB,1618434489
183,Igarka,67.4667,86.5833,262.02,95,100,2.94,RU,1618434672
184,Bubaque,11.2833,-15.8333,298.53,77,1,8.03,GW,1618434687
185,Marawi,7.9986,124.2928,297.04,86,100,1.79,PH,1618434703
186,The Valley,18.217,-63.0578,301.15,69,20,4.12,AI,1618434718
187,Yulara,-25.2406,130.9889,290.15,59,40,3.6,AU,1618434734
188,Bambous Virieux,-20.3428,57.7575,299.26,78,40,3.09,MU,1618434749
189,Nanortalik,60.1432,-45.2371,273.85,89,33,6.38,GL,1618434781
190,Kajaani,64.2273,27.7285,272.15,80,0,2.06,FI,1618434797
191,Kisangani,0.5167,25.2,298.15,88,20,2.06,CD,1618434828
192,Kruisfontein,-34.0033,24.7314,289.26,95,63,0.45,ZA,1618434844
193,Alyangula,-13.8483,136.4192,296.15,94,90,3.51,AU,1618434860
194,Marsh Harbour,26.5412,-77.0636,295.5,61,4,6.55,BS,1618434809
195,Laas,46.6166,10.7002,280.15,46,0,3.09,IT,1618434672
196,Terpinnya,46.9697,35.4197,281.48,85,100,4.69,UA,1618434907
197,Koumac,-20.5667,164.2833,298.68,84,80,2.15,NC,1618434923
198,Tres Arroyos,-38.3739,-60.2798,291.94,59,0,5.76,AR,1618434938
199,La Primavera,5.4906,-70.4092,297.72,87,100,3.13,CO,1618434954
200,Pontianak,-0.0333,109.3333,296.15,100,75,1.03,ID,1618434970
201,Nehe,48.4833,124.8333,273.21,71,4,2.25,CN,1618434985
202,Boa Vista,2.8197,-60.6733,303.15,66,75,4.63,BR,1618435001
203,Saint Paul Harbor,57.79,-152.4072,280.15,65,40,2.06,US,1618434732
204,Brejo da Madre de Deus,-8.1458,-36.3711,295.11,89,99,3.17,BR,1618434810
205,Udachny,66.4167,112.4,254.5,99,83,1.45,RU,1618435062
206,Shaunavon,49.6501,-108.4181,278.15,56,92,3.6,CA,1618435078
207,Ngunguru,-35.6167,174.5,290.93,82,9,0.45,NZ,1618435094
208,Soe,-9.8607,124.284,289.68,69,18,1.29,ID,1618435109
209,Guerrero Negro,27.9769,-114.0611,291.63,56,94,8.22,MX,1618435125
210,Lucknow,26.85,80.9167,299.15,36,51,2.19,IN,1618434918
211,Meulaboh,4.1363,96.1285,298.02,87,77,1.11,ID,1618435156
212,Aksu,41.1231,80.2644,287.39,30,52,2.41,CN,1618435171
213,Eydhafushi,5.1033,73.0708,301.05,74,33,3.08,MV,1618435187
214,Presidencia Roque Sáenz Peña,-26.7852,-60.4388,300.93,56,79,0.89,AR,1618435203
215,Pecos,31.4229,-103.4932,294.15,40,1,1.54,US,1618435219
216,Misterbianco,37.5341,14.9538,288.15,82,75,2.57,IT,1618435235
217,Kasongo,-4.45,26.6667,292.94,98,97,1.45,CD,1618435265
218,Esik,43.3552,77.4525,281.15,66,20,3.0,KZ,1618435296
219,Acapulco de Juárez,16.8634,-99.8901,302.15,70,90,5.14,MX,1618435148
220,Artyom,40.4723,50.333,283.15,81,0,1.03,AZ,1618435327
221,Pevek,69.7008,170.3133,252.39,87,38,2.15,RU,1618435343
222,Hibbing,47.4272,-92.9377,278.15,87,90,5.66,US,1618435358
223,Foindu,7.4108,-11.5422,298.81,88,97,0.84,SL,1618435375
224,Pisco,-13.7,-76.2167,296.15,64,0,2.06,PE,1618435390
225,Ostrovnoy,68.0531,39.5131,271.73,87,64,11.8,RU,1618435421
226,Ha Tinh,18.3333,105.9,296.66,95,96,0.97,VN,1618435437
227,Sisimiut,66.9395,-53.6735,264.17,79,100,9.19,GL,1618435468
228,Airai,-8.9266,125.4092,286.11,63,34,0.84,TL,1618435499
229,Praia da Vitória,38.7333,-27.0667,290.15,82,20,1.29,PT,1618435514
230,Khorixas,-20.3667,14.9667,296.75,28,1,4.74,NA,1618435530
231,Ternate,0.8,127.4,300.14,77,96,2.74,ID,1618435545
232,Sioux Lookout,50.1001,-91.917,272.15,86,90,4.12,CA,1618435561
233,Segezha,63.7415,34.3222,272.59,84,9,3.44,RU,1618435576
234,Carbonia,39.1672,8.5222,286.15,82,20,2.06,IT,1618435592
235,Lysyye Gory,51.5506,44.8414,283.94,61,86,3.81,RU,1618435608
236,Puerto Baquerizo Moreno,-0.9,-89.6,301.15,83,75,3.09,EC,1618435623
237,Santa Rosalía,27.3167,-112.2833,299.23,30,59,0.9,MX,1618435639
238,Oruzgan,32.8333,66.0,285.86,67,78,1.35,AF,1618435655
239,Egvekinot,66.3167,-179.1667,261.03,80,21,2.16,RU,1618435671
240,Aboso,5.3617,-1.9473,298.42,88,100,0.9,GH,1618435687
241,Cuiluan,47.72,128.648,268.74,66,97,1.07,CN,1618435702
242,Tilichiki,60.4667,166.1,262.07,86,100,3.16,RU,1618435495
243,Sitka,57.0531,-135.33,280.15,76,90,2.06,US,1618435733
244,Tatvan,38.5067,42.2817,277.08,66,0,1.46,TR,1618435749
245,San Vicente,-26.6167,-54.1333,292.66,96,99,0.96,AR,1618435764
246,Catuday,16.2923,119.8062,299.2,69,92,1.21,PH,1618435780
247,Lagoa,39.05,-27.9833,289.21,88,100,5.05,PT,1618435796
248,Vila Velha,-20.3297,-40.2925,298.15,65,0,6.17,BR,1618435803
249,São Filipe,14.8961,-24.4956,298.35,55,50,6.41,CV,1618435826
250,Dārāb,28.7519,54.5444,293.28,46,22,0.58,IR,1618435842
251,Olinda,-8.0089,-34.8553,300.15,74,40,3.6,BR,1618435857
252,Margate,51.3813,1.3862,278.71,67,12,1.34,GB,1618435873
253,Ambilobe,-13.2,49.05,295.34,94,74,1.2,MG,1618435889
254,Hokitika,-42.7167,170.9667,286.79,83,87,2.13,NZ,1618435904
255,Pinawa,50.1489,-95.8811,274.31,92,100,3.59,CA,1618435920
256,Aquiraz,-3.9014,-38.3911,301.15,83,20,5.14,BR,1618435935
257,Sekoma,-24.4,23.8833,293.78,30,1,1.49,BW,1618435966
258,Balikpapan,-1.2675,116.8289,296.94,91,92,1.97,ID,1618435982
259,Syracuse,37.0881,15.2792,288.15,77,75,1.03,IT,1618435997
260,Victor Harbor,-35.5667,138.6167,286.48,77,96,4.13,AU,1618436013
261,Jiexiu,37.0244,111.9125,283.28,52,70,4.73,CN,1618436028
262,Kirakira,-10.4544,161.9205,301.64,76,64,2.2,SB,1618436059
263,Ribeira Grande,38.5167,-28.7,290.15,94,40,2.57,PT,1618436075
264,Inírida,3.8653,-67.9239,296.31,98,100,1.36,CO,1618436090
265,Noumea,-22.2763,166.4572,298.15,88,90,4.63,NC,1618435675
266,Rawson,-43.3002,-65.1023,293.57,47,46,4.72,AR,1618435851
267,Samarai,-10.6167,150.6667,299.64,82,100,5.74,PG,1618436137
268,Honningsvåg,70.9821,25.9704,273.15,80,75,10.8,NO,1618436152
269,Te Anau,-45.4167,167.7167,284.0,86,92,2.49,NZ,1618436168
270,Kieta,-6.2167,155.6333,300.6,79,92,1.3,PG,1618436183
271,Aktash,50.3,87.7333,264.79,90,73,0.94,RU,1618436199
272,Kyshtovka,56.555,76.6271,275.76,99,100,1.73,RU,1618436215
273,Ijuí,-28.3878,-53.9147,293.15,94,100,3.6,BR,1618436060
274,Zyryanka,65.75,150.85,254.9,93,85,2.48,RU,1618436245
275,Charlottesville,38.0293,-78.4767,291.15,68,1,4.63,US,1618436261
276,Bodaybo,57.8506,114.1933,268.3,95,100,1.47,RU,1618436277
277,Alto Longá,-5.2511,-42.2103,296.26,95,100,2.05,BR,1618436292
278,Solnechnyy,50.7214,136.6319,268.68,64,96,1.43,RU,1618436308
279,Hays,30.0502,-98.0336,300.93,59,100,1.34,US,1618436323
280,Manyana,-23.4,21.7167,292.35,32,0,2.77,BW,1618436339
281,Chifeng,42.2683,118.9636,281.28,25,35,2.47,CN,1618436356
282,Kununurra,-15.7667,128.7333,289.15,94,56,0.51,AU,1618436371
283,Ancud,-41.8697,-73.8203,285.93,87,75,4.12,CL,1618436387
284,Nuuk,64.1835,-51.7216,267.15,93,90,7.2,GL,1618436411
285,Sovetskaya Gavan',48.9723,140.2878,272.02,56,81,2.14,RU,1618436426
286,Shahr-e Bābak,30.1165,55.1186,287.42,49,35,2.09,IR,1618436441
287,Chanika,-5.4167,38.0167,292.52,99,94,1.23,TZ,1618436184
288,Forsytheganj,52.6333,29.7333,281.69,79,100,0.55,BY,1618436472
289,Negombo,7.2083,79.8358,298.15,88,40,1.54,LK,1618436488
290,El Salvador,13.8333,-88.9167,304.15,65,40,7.2,SV,1618436504
291,Srandakan,-7.9386,110.2506,297.21,88,93,1.72,ID,1618436519
292,Finschhafen,-6.6024,147.8681,300.75,68,73,2.75,PG,1618436535
293,Šentjur pri Celju,46.2172,15.3975,275.37,84,81,0.84,SI,1618436550
294,Santa Rita,-7.1139,-34.9781,299.15,100,20,3.6,BR,1618436566
295,Jiazi,22.8779,116.067,292.49,82,100,7.55,CN,1618436583
296,Kwang Binh,17.4833,106.6,296.93,93,58,2.39,VN,1618436599
297,La Palma,33.8464,-118.0467,292.59,52,75,5.66,US,1618436614
298,Tiksi,71.6872,128.8694,257.78,96,98,1.02,RU,1618436455
299,Fjerritslev,57.0813,9.2664,276.48,69,1,1.54,DK,1618436645
300,Wau,7.7029,27.9953,302.84,17,23,1.96,SS,1618436662
301,Balabac,7.9868,117.0645,299.35,81,14,2.47,PH,1618436677
302,Vao,-22.6667,167.4833,296.92,80,100,9.41,NC,1618436480
303,Florida,28.7505,-82.5001,300.37,61,1,3.6,US,1618436589
304,Khandyga,62.6667,135.6,254.81,92,66,0.64,RU,1618436724
305,Comodoro Rivadavia,-45.8667,-67.5,291.15,42,75,5.66,AR,1618436434
306,Camaquã,-30.8511,-51.8122,292.68,72,0,3.67,BR,1618436770
307,Port Augusta,-32.5,137.7667,283.15,76,98,2.57,AU,1618436623
308,Bowen,-20.0167,148.2333,293.15,88,90,2.06,AU,1618436802
309,Makakilo City,21.3469,-158.0858,301.15,44,1,5.14,US,1618436516
310,Palmer,42.1584,-72.3287,295.15,30,75,2.57,US,1618436759
311,Isangel,-19.55,169.2667,301.91,66,26,1.06,VU,1618436551
312,Zbarazh,49.6636,25.7762,275.06,95,100,4.58,UA,1618436879
313,Smithers,54.7804,-127.1743,288.15,31,20,2.06,CA,1618436709
314,Kaitangata,-46.2817,169.8464,285.31,78,100,1.95,NZ,1618436566
315,Dejen,10.1667,38.1333,289.38,59,97,1.73,ET,1618436925
316,Swan River,52.1058,-101.2676,272.15,55,98,2.06,CA,1618436956
317,Los Llanos de Aridane,28.6585,-17.9182,294.15,68,75,0.51,ES,1618436972
318,Necochea,-38.5473,-58.7368,293.15,66,0,4.02,AR,1618436586
319,Venice,27.0998,-82.4543,301.48,73,1,4.12,US,1618436223
320,Hirara,24.8,125.2833,294.15,88,75,6.69,JP,1618437065
321,Murray Bridge,-35.1167,139.2667,286.48,83,93,3.29,AU,1618437081
322,Naze,28.3667,129.4833,289.46,63,93,3.59,JP,1618436538
323,Arrondissement de Dieppe,49.75,1.1667,277.04,70,0,4.63,FR,1618437113
324,Vestmannaeyjar,63.4427,-20.2734,280.59,84,81,8.29,IS,1618436581
325,Torbay,47.6666,-52.7314,274.82,100,90,4.63,CA,1618437144
326,Opuwo,-18.0607,13.84,296.17,31,90,5.49,NA,1618437159
327,Paramonga,-10.6667,-77.8333,293.85,80,61,3.54,PE,1618437175
328,Kumul,42.8,93.45,280.09,16,0,6.37,CN,1618437191
329,Viedma,-40.8135,-62.9967,296.81,34,4,6.24,AR,1618437206
330,Khabary,53.6259,79.5345,275.41,99,100,2.24,RU,1618437222
331,Yabēlo,4.8833,38.0833,289.4,79,85,1.4,ET,1618437238
332,Port Elizabeth,-33.918,25.5701,289.15,100,40,1.54,ZA,1618437254
333,Constantine,36.365,6.6147,285.15,94,75,1.54,DZ,1618437193
334,Manggar,-2.8833,108.2667,299.09,81,99,0.84,ID,1618437284
335,Maragogi,-9.0122,-35.2225,298.94,82,69,3.3,BR,1618437300
336,Cássia,-20.5831,-46.9219,293.65,75,64,1.84,BR,1618437315
337,Vitória,-20.3194,-40.3378,298.15,65,0,6.17,BR,1618437331
338,San Cristobal,7.7669,-72.225,302.15,65,40,4.12,VE,1618437346
339,Dimbokro,6.6451,-4.7048,298.48,85,75,2.37,CI,1618437362
340,Kang,-23.6752,22.7876,293.83,30,0,2.29,BW,1618437377
341,Solhan,38.9634,41.0293,277.82,74,2,1.62,TR,1618437393
342,Hambantota,6.1241,81.1185,298.15,100,20,1.54,LK,1618437409
343,Gáldar,28.147,-15.6502,294.15,68,40,7.2,ES,1618437424
344,Kurchum,48.5722,83.6542,277.29,59,100,4.37,KZ,1618437440
345,Colac,-38.3333,143.5833,283.71,98,98,4.44,AU,1618437455
346,Bathsheba,13.2167,-59.5167,301.15,61,20,3.6,BB,1618437471
347,Jati,24.3539,68.2671,298.79,68,3,5.15,PK,1618437487
348,Port-Cartier,50.0334,-66.8654,281.15,53,1,3.6,CA,1618437503
349,Carnarvon,-24.8667,113.6333,295.85,41,0,8.52,AU,1618437534
350,Xiuyan,40.2928,123.2744,278.2,72,74,1.94,CN,1618437550
351,Sinnamary,5.3833,-52.95,299.34,87,85,4.26,GF,1618437565
352,Manokwari,-0.8667,134.0833,299.51,71,100,1.36,ID,1618437596
353,Nouakchott,18.0858,-15.9785,296.15,73,51,7.72,MR,1618437412
354,Shingū,33.7333,135.9833,280.98,59,1,2.21,JP,1618437628
355,Sabha,27.0377,14.4283,296.27,27,76,7.28,LY,1618437643
356,Buraidah,26.326,43.975,294.15,35,0,4.63,SA,1618437659
357,Baykit,61.67,96.37,261.74,98,76,1.49,RU,1618437675
358,Ludvika,60.1496,15.1878,273.15,74,10,2.57,SE,1618437690
359,Manavālakurichi,8.1333,77.3,301.15,78,20,2.06,IN,1618437706
360,La Ronge,55.1001,-105.2842,281.15,23,100,3.6,CA,1618437721
361,Flin Flon,54.7682,-101.865,278.15,22,1,2.06,CA,1618437607
362,Poum,-20.2333,164.0167,298.79,85,96,4.57,NC,1618437753
363,Buala,-8.145,159.5921,301.64,71,68,1.48,SB,1618437769
364,Port Blair,11.6667,92.75,300.47,77,100,1.08,IN,1618437785
365,Batemans Bay,-35.7167,150.1833,285.93,82,0,1.54,AU,1618437800
366,Goma,-1.6792,29.2228,290.48,89,100,0.94,CD,1618437816
367,Sayyan,15.1718,44.3244,288.91,38,5,0.55,YE,1618437847
368,Bayangol,50.6977,103.4656,262.01,96,52,1.09,RU,1618437862
369,Władysławowo,54.7909,18.4009,276.48,81,20,5.66,PL,1618437878
370,Houston,29.7633,-95.3633,296.15,94,90,4.12,US,1618437646
371,Nago,26.5881,127.9761,291.15,82,75,2.06,JP,1618437924
372,Constitución,-35.3333,-72.4167,289.05,79,26,5.91,CL,1618437940
373,Mil'kovo,54.7167,158.6167,272.23,94,100,1.0,RU,1618437955
374,Manresa,41.725,1.8266,284.26,70,100,1.34,ES,1618437971
375,Shirakawa,37.1223,140.2376,276.15,70,20,2.06,JP,1618437986
376,Labuhan,-6.8844,112.2051,297.87,86,84,2.93,ID,1618438002
377,Omboué,-1.5746,9.2618,297.92,92,100,1.07,GA,1618438018
378,Laguna de Perlas,12.3429,-83.6712,303.15,70,40,6.17,NI,1618438033
379,Pimentel,-6.8367,-79.9342,295.15,68,75,10.29,PE,1618438049
380,Požega,45.3403,17.6853,276.48,93,0,1.54,HR,1618438065
381,Lorengau,-2.0226,147.2712,301.42,71,62,2.86,PG,1618438081
382,Siālkot,32.5101,74.5431,298.15,38,40,9.26,PK,1618438096
383,Zharkent,44.1628,80.0,287.06,29,81,2.07,KZ,1618438112
384,Bengkulu,-3.8004,102.2655,296.83,88,73,1.65,ID,1618438127
385,Tegul'det,57.3064,88.1667,272.78,92,100,1.71,RU,1618438143
386,Mahajanga,-15.7167,46.3167,297.15,94,20,2.06,MG,1618438158
387,Lüderitz,-26.6481,15.1594,297.35,33,0,2.54,NA,1618438174
388,Albina,5.5,-54.05,298.52,86,98,1.86,SR,1618438205
389,Quatre Cocos,-20.2078,57.7625,299.15,83,40,3.09,MU,1618438220
390,Ikongo,-21.8833,47.4333,293.1,97,96,0.87,MG,1618438236
391,Avera,33.194,-82.5271,301.15,28,75,6.17,US,1618438251
392,The Pas,53.8251,-101.2541,274.15,44,90,2.06,CA,1618438267
393,Saint-Augustin,51.226,-58.6502,277.92,52,0,2.03,CA,1618438146
394,Along,28.1667,94.7667,291.97,68,64,0.71,IN,1618438299
395,Usinsk,65.9939,57.5281,273.93,87,100,7.12,RU,1618438314
396,Hobyo,5.3505,48.5268,300.78,67,94,5.63,SO,1618438330
397,Les Cayes,18.2,-73.75,301.46,51,40,3.15,HT,1618438360
398,Lagos,6.5833,3.75,303.15,70,40,4.12,NG,1618438120
399,Port Hardy,50.6996,-127.4199,283.15,62,40,2.57,CA,1618438392
400,Saddiqabad,28.3062,70.1307,300.16,19,99,3.17,PK,1618438408
401,Clyde River,70.4692,-68.5914,255.15,78,20,8.23,CA,1618438423
402,Sāveh,35.0213,50.3566,290.97,29,44,1.82,IR,1618438270
403,Baghdad,33.3406,44.4009,291.15,29,0,5.14,IQ,1618438454
404,Price,39.5994,-110.8107,284.15,46,75,7.72,US,1618438470
405,Xinyu,27.8043,114.9334,288.28,96,100,1.07,CN,1618438486
406,Hong Kong,22.2855,114.1577,295.93,92,99,0.89,HK,1618438366
407,Talara,-4.5772,-81.2719,298.15,69,0,6.17,PE,1618438517
408,Parnarama,-5.6817,-43.0933,300.3,72,99,0.52,BR,1618438532
409,Magdagachi,53.45,125.8,265.79,78,55,1.54,RU,1618438548
410,Pervomayskoye,43.919,46.7102,284.43,88,100,4.25,RU,1618438563
411,Coolum Beach,-26.5333,153.1,294.82,82,0,1.43,AU,1618438579
412,Simnas,54.4,23.65,278.15,81,90,5.66,LT,1618438595
413,Mikhaylovka,50.06,43.2379,284.72,55,86,2.25,RU,1618438611
414,Araouane,18.9048,-3.5265,307.21,7,2,3.7,ML,1618438626
415,Oranjemund,-28.55,16.4333,294.69,47,0,1.31,NA,1618438642
416,Kalemie,-5.9475,29.1947,293.98,87,100,1.17,CD,1618438658
417,Banda Aceh,5.5577,95.3222,299.29,77,90,2.2,ID,1618438674
418,Adet,11.2644,37.4888,289.89,64,96,2.77,ET,1618438690
419,Amapá,1.0,-52.0,296.77,97,100,1.41,BR,1618438706
420,Jijiang,29.2906,106.2542,289.82,94,90,4.0,CN,1618438721
421,Forest,37.3638,-79.2897,292.15,68,75,2.06,US,1618438737
422,Guînes,50.8671,1.8703,278.71,80,0,2.57,FR,1618438753
423,Pochutla,15.7432,-96.4661,305.93,37,75,7.72,MX,1618438769
424,Mahibadhoo,3.7833,72.9667,301.26,73,30,4.44,MV,1618438801
425,Cabedelo,-6.9811,-34.8339,299.15,100,20,2.57,BR,1618438818
426,Tongliao,43.6125,122.2653,278.68,44,99,4.02,CN,1618438833
427,Pinyug,60.251,47.7842,282.89,86,98,3.81,RU,1618438849
428,Yangi Marg`ilon,40.4272,71.7189,285.15,76,100,1.32,UZ,1618438696
429,Frolovo,49.7713,43.6622,284.6,54,43,2.72,RU,1618438897
430,Måløy,61.9353,5.1136,278.15,81,90,2.57,NO,1618438914
431,Muli,2.9167,73.5667,301.41,68,57,4.63,MV,1618438929
432,Tuy Hoa,13.0833,109.3,296.03,90,97,1.04,VN,1618438961
433,Saint-Jovite,46.1186,-74.5966,289.15,51,39,1.03,CA,1618438802
434,Kusu,33.2831,131.1514,282.15,49,0,2.57,JP,1618438992
435,Srīvardhan,18.0333,73.0167,300.37,62,0,1.03,IN,1618439007
436,Tura,25.5198,90.2201,297.64,56,100,3.04,IN,1618439023
437,Awjilah,29.1081,21.2869,292.32,47,24,5.54,LY,1618439039
438,Birao,10.2849,22.7882,298.71,7,13,2.86,CF,1618439054
439,Voyvozh,62.892,54.9635,283.24,83,96,5.7,RU,1618439070
440,Catania,37.5021,15.0872,288.15,77,75,3.6,IT,1618439086
441,Sept-Îles,50.2001,-66.3821,280.15,53,1,2.06,CA,1618439101
442,Takoradze,4.8845,-1.7554,300.09,84,100,2.17,GH,1618439118
443,Srednekolymsk,67.45,153.6833,259.34,79,25,2.24,RU,1618439134
444,Nador,35.174,-2.9287,288.15,88,40,5.14,MA,1618439149
445,Olafsvik,64.8945,-23.7142,278.57,89,41,6.36,IS,1618439165
446,Križevci,46.0219,16.5425,275.93,86,0,1.6,HR,1618439180
447,Kendari,-3.945,122.4989,296.12,94,90,1.62,ID,1618439196
448,Awka,6.2101,7.0741,298.07,77,89,1.88,NG,1618439212
449,Kutiyāna,21.6233,69.9817,298.97,62,2,2.97,IN,1618439227
450,Mufumbwe,-13.6833,24.8,288.96,86,54,1.69,ZM,1618439243
451,Örnsköldsvik,63.2909,18.7153,274.15,64,8,4.12,SE,1618439258
452,Kuytun,54.3419,101.5036,271.58,95,100,4.87,RU,1618439274
453,Xining,36.6167,101.7667,276.0,60,95,0.23,CN,1618439291
454,Talaya,61.3833,152.75,259.25,88,98,0.83,RU,1618439307
455,Harper,4.375,-7.7169,300.58,80,77,3.55,LR,1618439322
456,Chute-aux-Outardes,49.1168,-68.399,281.15,66,1,2.06,CA,1618439338
457,Benguela,-12.5763,13.4055,300.17,86,21,1.58,AO,1618439353
458,Russell,32.3502,-85.1999,297.15,60,90,2.06,US,1618439369
459,Port Moresby,-9.4431,147.1797,298.15,88,40,2.06,PG,1618439116
460,Sedro-Woolley,48.5039,-122.2361,292.04,34,1,6.69,US,1618439342
461,Batagay-Alyta,67.8006,130.4114,256.72,86,26,1.29,RU,1618439415
462,Caravelas,-17.7125,-39.2481,298.03,66,24,4.91,BR,1618439447
463,San Buenaventura,27.0833,-101.5333,306.15,40,40,4.52,MX,1618439462
464,San Andrés,12.5847,-81.7006,303.15,66,75,7.2,CO,1618439410
465,Souillac,-20.5167,57.5167,299.15,83,40,4.12,MU,1618439493
466,Le Port,-20.9373,55.2919,299.15,69,90,5.66,RE,1618439509
467,Aklavik,68.2191,-135.0107,272.15,55,75,2.57,CA,1618439524
468,Inongo,-1.95,18.2667,295.93,88,34,2.91,CD,1618439540
469,Bambanglipuro,-7.95,110.2833,297.2,88,88,1.56,ID,1618439555
470,Annau,37.8876,58.516,289.15,33,44,2.06,TM,1618439571
471,Dana Point,33.467,-117.6981,289.82,68,100,1.79,US,1618439489
472,Mogadishu,2.0371,45.3438,300.63,72,83,4.51,SO,1618439602
473,Namie,37.4833,141.0,280.37,75,0,0.89,JP,1618439632
474,General Cepeda,25.3833,-101.45,305.15,29,1,7.72,MX,1618439648
475,Nelson,-41.2833,173.2833,289.26,92,100,0.89,NZ,1618439565
476,Shubarshi,48.5872,57.1869,282.73,54,2,4.33,KZ,1618439679
477,Mariehamn,60.0973,19.9348,270.15,100,0,1.54,AX,1618439694
478,Bintulu,3.1667,113.0333,297.15,94,20,2.06,MY,1618439710
479,Bandarbeyla,9.4942,50.8122,299.69,77,39,3.47,SO,1618439725
480,Leh,34.1667,77.5833,273.82,67,95,0.73,IN,1618439741
481,Fairhope,30.523,-87.9033,290.93,100,90,6.17,US,1618439756
482,Dicabisagan,17.0818,122.4157,298.66,83,66,1.43,PH,1618439772
483,Mokhsogollokh,61.4681,128.9203,263.48,88,73,0.56,RU,1618439788
484,Ucluelet,48.9329,-125.5528,291.15,34,1,6.69,CA,1618439712
485,Port Macquarie,-31.4333,152.9167,293.15,62,57,0.89,AU,1618439819
486,Kinkala,-4.3614,14.7644,297.15,94,40,1.54,CG,1618439837
487,Ambon City,-3.6954,128.1814,297.15,94,40,4.12,ID,1618439852
488,Nantucket,41.2835,-70.0995,283.15,57,1,2.57,US,1618439602
489,Mezen',65.8522,44.24,272.79,80,23,5.61,RU,1618439887
490,Santa Lucía,27.9117,-15.5407,294.15,68,40,8.23,ES,1618439904
491,Severobaykal'sk,55.65,109.3167,266.3,87,100,1.36,RU,1618439919
492,Kalianget,-7.05,113.9333,299.58,77,82,0.99,ID,1618440741
493,Ishinomaki,38.4167,141.3,280.15,45,20,2.06,JP,1618440756
494,Mossamedes,-15.1961,12.1522,300.19,73,48,0.58,AO,1618440772
495,Talcahuano,-36.7167,-73.1167,290.15,72,40,6.17,CL,1618440787
496,Dhidhdhoo,6.8833,73.1,301.75,67,88,1.59,MV,1618440803
497,Verāval,20.9,70.3667,298.98,64,3,5.34,IN,1618440818
498,Senj,44.9894,14.9058,279.15,56,20,2.06,HR,1618440865
499,Narsaq,60.9167,-46.05,276.15,65,20,0.49,GL,1618440881
500,Kamakwie,9.5,-12.2333,295.59,92,100,1.83,SL,1618440911
501,Rørvik,64.8621,11.2373,277.69,79,46,7.48,NO,1618440927
502,Chegdomyn,51.1167,133.0167,267.12,68,33,1.12,RU,1618440942
503,Naryan-Mar,67.6713,53.087,270.48,86,33,8.88,RU,1618440958
504,Yagodnoye,62.55,149.6667,258.56,85,100,1.04,RU,1618440973
505,Lavrentiya,65.5833,-171.0,271.29,94,100,0.49,RU,1618440989
506,Jiwani,25.05,61.7417,299.24,78,34,2.4,PK,1618441004
507,Terrace,54.5163,-128.6035,291.15,29,20,2.57,CA,1618440577
508,Montrose,38.4166,-108.2673,292.59,11,66,5.81,US,1618441035
509,Asău,46.4333,26.4,277.59,65,100,1.17,RO,1618441051
510,Maumere,-8.6199,122.2111,299.41,80,41,2.78,ID,1618441066
511,Ottawa,45.4112,-75.6981,288.71,58,75,1.54,CA,1618440893
512,Kabompo,-13.5927,24.2008,289.11,88,74,1.98,ZM,1618441097
513,Fairbanks,64.8378,-147.7164,282.15,42,75,4.12,US,1618440846
514,Chernyshevskiy,63.0128,112.4714,262.2,94,87,0.72,RU,1618441143
515,Cape Coast,5.1053,-1.2466,300.4,84,96,3.89,GH,1618440911
516,Xiaoweizhai,26.1903,107.5125,286.48,97,99,0.21,CN,1618441174
517,Sri Aman,1.2376,111.4621,296.15,100,99,0.02,MY,1618441189
518,Athabasca,54.7169,-113.2854,288.15,20,67,4.12,CA,1618441031
519,Colesberg,-30.72,25.0972,292.26,31,56,1.5,ZA,1618441223
520,San Luis,-33.295,-66.3356,291.07,62,2,0.9,AR,1618441032
521,Bireun,5.203,96.7009,298.16,81,100,1.51,ID,1618441255
522,Šibenik,43.7272,15.9058,278.71,56,0,3.09,HR,1618441270
523,Ürümqi,43.801,87.6005,281.15,29,0,2.0,CN,1618441286
524,Dwārka,22.2394,68.9678,299.57,66,31,5.78,IN,1618441301
525,Mehamn,71.0357,27.8492,272.33,66,100,11.19,NO,1618441056
526,São Lourenço do Sul,-31.3653,-51.9783,292.78,75,0,5.63,BR,1618441332
527,Cayenne,4.9333,-52.3333,301.15,83,75,1.54,GF,1618441076
528,Broken Hill,-31.95,141.4333,287.15,58,38,4.63,AU,1618441363
529,Flinders,-34.5833,150.8552,290.93,66,11,0.45,AU,1618441114
530,Rabo de Peixe,37.8,-25.5833,289.15,77,20,0.51,PT,1618441062
531,Carauari,-4.8828,-66.8958,296.64,97,98,1.46,BR,1618441410
532,Yermakovskoye,53.2831,92.4003,275.61,94,100,6.24,RU,1618441425
533,Neuquén,-38.9516,-68.0591,291.15,59,0,1.03,AR,1618441440
534,Adrar,20.5022,-10.0711,299.16,18,40,5.19,MR,1618441092
535,Ahaus,52.0667,7.0,275.37,80,26,2.62,DE,1618441321
536,Grong,64.4654,12.3149,273.07,88,79,2.22,NO,1618441517
537,Mandurah,-32.55,115.7,284.26,81,2,3.62,AU,1618441534
538,Halifax,44.6453,-63.5724,280.15,57,40,8.75,CA,1618441272
539,Kitimat,54.0524,-128.6534,291.15,29,20,2.57,CA,1618441393
540,Mitsamiouli,-11.3847,43.2844,300.68,70,100,2.49,KM,1618441176
541,Marzuq,14.4,46.4667,293.09,60,7,2.53,YE,1618441597
542,Bontang,0.1333,117.5,297.09,93,100,3.92,ID,1618441613
543,Gravdal,68.1214,13.5031,277.81,86,100,13.17,NO,1618441645
544,Quelimane,-17.8786,36.8883,296.93,70,56,1.5,MZ,1618441660
545,Worland,44.0169,-107.9554,274.15,55,90,3.09,US,1618441676
546,Algeciras,36.1333,-5.4505,289.15,77,90,9.77,ES,1618441692
547,Harlingen,26.1906,-97.6961,305.37,62,1,8.23,US,1618441707
548,Lethem,3.3803,-59.7968,300.63,74,67,2.92,GY,1618441723
549,Fenoarivo,-18.933,47.4354,291.15,94,75,1.2,MG,1618441738
550,Palanga,55.9175,21.0686,277.15,75,75,5.66,LT,1618441754
551,Byron Bay,-28.65,153.6167,294.26,77,0,2.06,AU,1618441586
552,Oleksandrivka,48.9634,32.2349,282.02,80,81,2.47,UA,1618441785
553,Xai-Xai,-25.0519,33.6442,292.6,91,0,2.05,MZ,1618441816
554,Beloha,-25.1667,45.05,294.78,97,5,2.09,MG,1618441832
555,Ulkan,57.243,107.3223,269.77,94,100,1.41,RU,1618441847
556,Kisoro,-1.2854,29.685,286.33,94,100,0.42,UG,1618441863
557,Mount Isa,-20.7333,139.5,301.15,36,1,3.6,AU,1618441737
558,Imbituba,-28.24,-48.6703,295.15,78,75,1.54,BR,1618441700
559,Ahipara,-35.1667,173.1667,292.18,61,53,5.19,NZ,1618441956
560,Road Town,18.4167,-64.6167,299.15,78,40,4.12,VG,1618441871
561,Kharovsk,59.9642,40.1912,277.78,88,100,3.66,RU,1618441986
562,Diamond Harbour,22.1917,88.1847,300.15,89,40,2.06,IN,1618442002
563,Krasnosel'kup,65.7,82.4667,270.68,96,100,11.53,RU,1618442017
564,Coleraine,55.1333,-6.6667,275.15,93,31,1.03,GB,1618441844
565,Kathmandu,27.7167,85.3167,288.15,72,20,1.54,NP,1618441864
566,Kargasok,59.0556,80.8572,274.71,99,100,2.85,RU,1618442063
567,Anaco,9.4389,-64.4728,302.87,53,98,2.49,VE,1618442079
568,Huicungo,-7.2833,-76.8,297.02,89,93,0.41,PE,1618442095
569,Braniştea,44.6833,25.5833,279.26,81,90,4.63,RO,1618442110
570,Adwa,14.1646,38.8955,293.09,55,48,1.2,ET,1618442127
571,Tongling,30.95,117.7833,285.43,81,100,1.19,CN,1618442143
572,Ayorou,14.7308,0.9174,304.67,6,85,4.08,NE,1618442159
573,Odienné,9.51,-7.5692,297.21,70,95,2.52,CI,1618442174
574,Conde,-7.2597,-34.9075,299.15,100,20,2.06,BR,1618442190
575,Takaungu,-3.6837,39.8566,300.15,83,40,3.6,KE,1618442205
576,Praia,14.9215,-23.5087,296.15,60,0,9.26,CV,1618442221
577,Yārāda,17.65,83.2667,300.34,70,85,3.39,IN,1618442237
578,Sandwick,60.0,-1.25,280.15,93,75,1.54,GB,1618442154
579,Borazjan,29.2666,51.2159,296.71,45,16,0.58,IR,1618442267
580,Hamada,34.8833,132.0833,281.15,61,0,3.09,JP,1618442283
581,Whitehorse,60.7161,-135.0538,280.15,49,75,9.77,CA,1618442299
582,Arona,28.0996,-16.681,293.71,83,20,0.51,ES,1618442315
583,Kaoma,-14.7833,24.8,288.88,80,61,2.51,ZM,1618442330
584,Baghramyan,40.1934,44.3683,279.15,65,6,1.03,AM,1618442346
585,Washington,47.5001,-120.5015,294.15,16,1,3.6,US,1618442069
586,Port Hedland,-20.3167,118.5667,297.15,78,89,3.6,AU,1618442111
587,Bikin,46.8161,134.26,276.0,32,26,2.12,RU,1618442393
588,Lubao,14.9167,120.55,300.15,78,75,1.03,PH,1618442408
589,Grants,35.1473,-107.8514,295.15,5,1,7.2,US,1618442424
590,Juegang,32.3174,121.1855,284.26,74,97,5.63,CN,1618442439
591,Chatham,51.3789,0.5279,279.26,72,12,2.38,GB,1618442097
592,Kyaukse,21.6,96.1333,301.53,51,94,2.97,MM,1618442470
593,North Bend,43.4065,-124.2243,292.59,39,1,9.77,US,1618442486
594,Fort Nelson,58.8053,-122.7002,288.15,26,20,2.57,CA,1618442501
595,Vestmanna,62.1564,-7.1664,280.15,100,75,6.17,FO,1618442517
